[
    {
        "city": "Moab",
        "distance": "34.1 mi",
        "id": "4670265",
        "lat": 38.5733155,
        "long": -109.5498395,
        "name": "The Whole Enchilada",
        "numReviews": 366,
        "numStars": 0,
        "position": 1,
        "reviewText": "",
        "state": " UT"
    },
    {
        "city": "Moab",
        "distance": "14.7 mi",
        "id": "157369",
        "lat": 38.5733155,
        "long": -109.5498395,
        "name": "Porcupine Rim",
        "numReviews": 306,
        "numStars": 0,
        "position": 2,
        "reviewText": "",
        "state": " UT"
    },
    {
        "city": "Pine",
        "distance": "12.6 mi",
        "id": "7015764",
        "lat": 39.4084249,
        "long": -105.3232433,
        "name": "Little Scraggy Trail Loop",
        "numReviews": 430,
        "numStars": 0,
        "position": 3,
        "reviewText": "",
        "state": " CO"
    },
    {
        "city": "Whitepine",
        "distance": "36.2 mi",
        "id": "3671983",
        "lat": 38.5416626,
        "long": -106.3936374,
        "name": "Monarch Crest - IMBA EPIC",
        "numReviews": 254,
        "numStars": 0,
        "position": 4,
        "reviewText": "",
        "state": " CO"
    },
    {
        "city": "Cortez",
        "distance": "26.8 mi",
        "id": "621788",
        "lat": 37.3488827,
        "long": -108.5859265,
        "name": "Phil's World",
        "numReviews": 175,
        "numStars": 0,
        "position": 5,
        "reviewText": "",
        "state": " CO"
    },
    {
        "city": "West Sedona",
        "distance": "13.1 mi",
        "id": "7003838",
        "lat": 34.8672398,
        "long": -111.8054345,
        "name": "West Sedona Tour",
        "numReviews": 125,
        "numStars": 0,
        "position": 6,
        "reviewText": "",
        "state": " AZ"
    },
    {
        "city": "Hurricane",
        "distance": "13.1 mi",
        "id": "4183760",
        "lat": 37.1752607,
        "long": -113.2899484,
        "name": "Gooseberry Mesa - The Bi\u2026",
        "numReviews": 136,
        "numStars": 0,
        "position": 7,
        "reviewText": "",
        "state": " UT"
    },
    {
        "city": "Crested Butte",
        "distance": "14.1 mi",
        "id": "338027",
        "lat": 38.8697146,
        "long": -106.9878231,
        "name": "401 Trail Loop",
        "numReviews": 277,
        "numStars": 0,
        "position": 8,
        "reviewText": "",
        "state": " CO"
    },
    {
        "city": "Moab",
        "distance": "22.2 mi",
        "id": "652241",
        "lat": 38.5733155,
        "long": -109.5498395,
        "name": "Mag 7",
        "numReviews": 155,
        "numStars": 0,
        "position": 9,
        "reviewText": "",
        "state": " UT"
    },
    {
        "city": "Pine",
        "distance": "24.2 mi",
        "id": "845269",
        "lat": 39.4084249,
        "long": -105.3232433,
        "name": "Buffalo Creek Big Loop -\u2026",
        "numReviews": 244,
        "numStars": 0,
        "position": 10,
        "reviewText": "",
        "state": " CO"
    },
    {
        "city": "Fairfax",
        "distance": "11.3 mi",
        "id": "808937",
        "lat": 37.9871454,
        "long": -122.5888686,
        "name": "Camp Tamarancho Loop",
        "numReviews": 126,
        "numStars": 0,
        "position": 11,
        "reviewText": "",
        "state": " CA"
    },
    {
        "city": "Moab",
        "distance": "17.4 mi",
        "id": "7007957",
        "lat": 38.5733155,
        "long": -109.5498395,
        "name": "Navajo Rocks Chaco Loop",
        "numReviews": 208,
        "numStars": 0,
        "position": 12,
        "reviewText": "",
        "state": " UT"
    },
    {
        "city": "Brevard",
        "distance": "18.0 mi",
        "id": "5343103",
        "lat": 35.2334472,
        "long": -82.7342919,
        "name": "Best of DuPont",
        "numReviews": 125,
        "numStars": 0,
        "position": 13,
        "reviewText": "",
        "state": " NC"
    },
    {
        "city": "McKenzie Bridge",
        "distance": "25.4 mi",
        "id": "212960",
        "lat": 44.1751238,
        "long": -122.1639473,
        "name": "McKenzie River Trail (MRT)",
        "numReviews": 137,
        "numStars": 0,
        "position": 14,
        "reviewText": "",
        "state": " OR"
    },
    {
        "city": "Mount Hood Village",
        "distance": "15.7 mi",
        "id": "3482113",
        "lat": 45.3511939,
        "long": -121.9735364,
        "name": "Sandy Ridge Trail System\u2026",
        "numReviews": 97,
        "numStars": 0,
        "position": 15,
        "reviewText": "",
        "state": " OR"
    },
    {
        "city": "Moab",
        "distance": "14.4 mi",
        "id": "5083590",
        "lat": 38.5733155,
        "long": -109.5498395,
        "name": "Dead Horse Point Tour",
        "numReviews": 178,
        "numStars": 0,
        "position": 16,
        "reviewText": "",
        "state": " UT"
    },
    {
        "city": "Incline Village",
        "distance": "24.6 mi",
        "id": "1221910",
        "lat": 39.249683,
        "long": -119.9526847,
        "name": "Tahoe Rim & Flume Trail\u2026",
        "numReviews": 89,
        "numStars": 0,
        "position": 17,
        "reviewText": "",
        "state": " NV"
    },
    {
        "city": "Nashville",
        "distance": "28.6 mi",
        "id": "1002206",
        "lat": 39.2072501,
        "long": -86.24695349999999,
        "name": "Brown County State Park",
        "numReviews": 130,
        "numStars": 0,
        "position": 18,
        "reviewText": "",
        "state": " IN"
    },
    {
        "city": "Moab",
        "distance": "10.7 mi",
        "id": "158941",
        "lat": 38.5733155,
        "long": -109.5498395,
        "name": "Slickrock",
        "numReviews": 335,
        "numStars": 0,
        "position": 19,
        "reviewText": "",
        "state": " UT"
    },
    {
        "city": "Rockford",
        "distance": "8.3 mi",
        "id": "4066312",
        "lat": 43.1200272,
        "long": -85.5600316,
        "name": "Merrell Trail",
        "numReviews": 90,
        "numStars": 0,
        "position": 20,
        "reviewText": "",
        "state": " MI"
    },
    {
        "city": "Loma",
        "distance": "18.2 mi",
        "id": "290187",
        "lat": 39.1958139,
        "long": -108.813158,
        "name": "Kokopelli Loops - Mary's\u2026",
        "numReviews": 148,
        "numStars": 0,
        "position": 21,
        "reviewText": "",
        "state": " CO"
    },
    {
        "city": "Moab",
        "distance": "9.0 mi",
        "id": "5271508",
        "lat": 38.5733155,
        "long": -109.5498395,
        "name": "HyMasa/Captain Ahab Huck\u2026",
        "numReviews": 243,
        "numStars": 0,
        "position": 22,
        "reviewText": "",
        "state": " UT"
    },
    {
        "city": "Idaho Springs",
        "distance": "17.2 mi",
        "id": "31804",
        "lat": 39.7424881,
        "long": -105.5136081,
        "name": "Centennial Cone",
        "numReviews": 276,
        "numStars": 0,
        "position": 23,
        "reviewText": "",
        "state": " CO"
    },
    {
        "city": "Day Valley",
        "distance": "19.2 mi",
        "id": "675422",
        "lat": 36.9962209,
        "long": -121.8482538,
        "name": "Braille Flow",
        "numReviews": 114,
        "numStars": 0,
        "position": 24,
        "reviewText": "",
        "state": " CA"
    },
    {
        "city": "Lake Ridge",
        "distance": "12.9 mi",
        "id": "5398586",
        "lat": 38.68789400000001,
        "long": -77.29776180000002,
        "name": "Fountainhead Regional Park",
        "numReviews": 89,
        "numStars": 0,
        "position": 25,
        "reviewText": "",
        "state": " VA"
    },
    {
        "city": "Indian Springs Village",
        "distance": "21.7 mi",
        "id": "99190",
        "lat": 33.35951430000001,
        "long": -86.7491802,
        "name": "Oak Mountain State Park",
        "numReviews": 66,
        "numStars": 0,
        "position": 26,
        "reviewText": "",
        "state": " AL"
    },
    {
        "city": "Boulder",
        "distance": "7.4 mi",
        "id": "46286",
        "lat": 40.0149856,
        "long": -105.2705456,
        "name": "Betasso Preserve",
        "numReviews": 211,
        "numStars": 0,
        "position": 27,
        "reviewText": "",
        "state": " CO"
    },
    {
        "city": "Portola Valley",
        "distance": "11.5 mi",
        "id": "491142",
        "lat": 37.3841066,
        "long": -122.2352443,
        "name": "El Corte Madera Open Spa\u2026",
        "numReviews": 76,
        "numStars": 0,
        "position": 28,
        "reviewText": "",
        "state": " CA"
    },
    {
        "city": "Pine",
        "distance": "20.6 mi",
        "id": "858508",
        "lat": 39.4084249,
        "long": -105.3232433,
        "name": "Buffalo Creek Loop - Pin\u2026",
        "numReviews": 72,
        "numStars": 0,
        "position": 29,
        "reviewText": "",
        "state": " CO"
    },
    {
        "city": "West Pleasant View",
        "distance": "9.4 mi",
        "id": "7000620",
        "lat": 39.7327579,
        "long": -105.1790573,
        "name": "Apex Park Tour",
        "numReviews": 135,
        "numStars": 0,
        "position": 30,
        "reviewText": "",
        "state": " CO"
    },
    {
        "city": "Black Mountain",
        "distance": "9.9 mi",
        "id": "777151",
        "lat": 35.6178951,
        "long": -82.3212302,
        "name": "Kitsuma/Point Lookout Loop",
        "numReviews": 93,
        "numStars": 0,
        "position": 31,
        "reviewText": "",
        "state": " NC"
    },
    {
        "city": "Loudonville",
        "distance": "23.1 mi",
        "id": "960984",
        "lat": 40.6353382,
        "long": -82.2332144,
        "name": "Mohican Mountain Bike Tr\u2026",
        "numReviews": 101,
        "numStars": 0,
        "position": 32,
        "reviewText": "",
        "state": " OH"
    },
    {
        "city": "Pine",
        "distance": "19.9 mi",
        "id": "922946",
        "lat": 39.4084249,
        "long": -105.3232433,
        "name": "Staunton State Park - Fu\u2026",
        "numReviews": 149,
        "numStars": 0,
        "position": 33,
        "reviewText": "",
        "state": " CO"
    },
    {
        "city": "Downieville",
        "distance": "14.0 mi",
        "id": "849154",
        "lat": 39.5595198,
        "long": -120.8276966,
        "name": "Downieville Classic",
        "numReviews": 96,
        "numStars": 0,
        "position": 34,
        "reviewText": "",
        "state": " CA"
    },
    {
        "city": "Bella Vista",
        "distance": "22.2 mi",
        "id": "7020890",
        "lat": 36.481464,
        "long": -94.2732642,
        "name": "The Back 40 Loop - Compl\u2026",
        "numReviews": 61,
        "numStars": 0,
        "position": 35,
        "reviewText": "",
        "state": " AR"
    },
    {
        "city": "Gunnison",
        "distance": "20.1 mi",
        "id": "42669",
        "lat": 38.5458246,
        "long": -106.9253207,
        "name": "Doctor Park",
        "numReviews": 167,
        "numStars": 0,
        "position": 36,
        "reviewText": "",
        "state": " CO"
    },
    {
        "city": "Genesee",
        "distance": "12.2 mi",
        "id": "703097",
        "lat": 39.6858211,
        "long": -105.2727684,
        "name": "Lair O' the Bear - Bear\u2026",
        "numReviews": 252,
        "numStars": 0,
        "position": 37,
        "reviewText": "",
        "state": " CO"
    },
    {
        "city": "Lyons",
        "distance": "11.8 mi",
        "id": "43824",
        "lat": 40.2247075,
        "long": -105.271378,
        "name": "Hall Ranch",
        "numReviews": 225,
        "numStars": 0,
        "position": 38,
        "reviewText": "",
        "state": " CO"
    },
    {
        "city": "Golden",
        "distance": "7.5 mi",
        "id": "5466724",
        "lat": 39.755543,
        "long": -105.2210997,
        "name": "North Table Loop",
        "numReviews": 193,
        "numStars": 0,
        "position": 39,
        "reviewText": "",
        "state": " CO"
    },
    {
        "city": "Brevard",
        "distance": "6.3 mi",
        "id": "1025374",
        "lat": 35.2334472,
        "long": -82.7342919,
        "name": "DuPont Ridgeline",
        "numReviews": 132,
        "numStars": 0,
        "position": 40,
        "reviewText": "",
        "state": " NC"
    },
    {
        "city": "Pinckney",
        "distance": "16.9 mi",
        "id": "1020978",
        "lat": 42.4567013,
        "long": -83.9463358,
        "name": "Potawatomi Trail",
        "numReviews": 91,
        "numStars": 0,
        "position": 41,
        "reviewText": "",
        "state": " MI"
    },
    {
        "city": "Crested Butte",
        "distance": "11.5 mi",
        "id": "963897",
        "lat": 38.8697146,
        "long": -106.9878231,
        "name": "Teocalli Ridge Loop",
        "numReviews": 94,
        "numStars": 0,
        "position": 42,
        "reviewText": "",
        "state": " CO"
    },
    {
        "city": "Springdale",
        "distance": "11.0 mi",
        "id": "7008984",
        "lat": 37.1888713,
        "long": -112.9985515,
        "name": "The Whole Guacamole",
        "numReviews": 81,
        "numStars": 0,
        "position": 43,
        "reviewText": "",
        "state": " UT"
    },
    {
        "city": "Lorton",
        "distance": "6.7 mi",
        "id": "7001993",
        "lat": 38.704282,
        "long": -77.2277603,
        "name": "Meadowood Grand Tour",
        "numReviews": 78,
        "numStars": 0,
        "position": 44,
        "reviewText": "",
        "state": " VA"
    },
    {
        "city": "Fruita",
        "distance": "8.5 mi",
        "id": "272394",
        "lat": 39.1588696,
        "long": -108.7289882,
        "name": "18 Road Trails - Zippity\u2026",
        "numReviews": 114,
        "numStars": 0,
        "position": 45,
        "reviewText": "",
        "state": " CO"
    },
    {
        "city": "Lincoln Park",
        "distance": "13.2 mi",
        "id": "4221967",
        "lat": 38.4291649,
        "long": -105.2199896,
        "name": "Oil Well Flats Trail System",
        "numReviews": 80,
        "numStars": 0,
        "position": 46,
        "reviewText": "",
        "state": " CO"
    },
    {
        "city": "Golden",
        "distance": "13.6 mi",
        "id": "632917",
        "lat": 39.755543,
        "long": -105.2210997,
        "name": "White Ranch: Technical D\u2026",
        "numReviews": 143,
        "numStars": 0,
        "position": 47,
        "reviewText": "",
        "state": " CO"
    },
    {
        "city": "Saint George",
        "distance": "5.7 mi",
        "id": "704021",
        "lat": 37.0965278,
        "long": -113.5684164,
        "name": "Zen Trail",
        "numReviews": 91,
        "numStars": 0,
        "position": 48,
        "reviewText": "",
        "state": " UT"
    },
    {
        "city": "Pine",
        "distance": "15.2 mi",
        "id": "7008221",
        "lat": 39.4084249,
        "long": -105.3232433,
        "name": "Mini-Tour of Buffalo Creek",
        "numReviews": 99,
        "numStars": 0,
        "position": 49,
        "reviewText": "",
        "state": " CO"
    },
    {
        "city": "Air Force Academy",
        "distance": "13.1 mi",
        "id": "269633",
        "lat": 38.9983573,
        "long": -104.8617533,
        "name": "USAFA Falcon Trail",
        "numReviews": 141,
        "numStars": 0,
        "position": 50,
        "reviewText": "",
        "state": " CO"
    },
    {
        "city": "Amboy",
        "distance": "16.8 mi",
        "id": "4550979",
        "lat": 45.9101124,
        "long": -122.446487,
        "name": "Ape Canyon to Plains of\u2026",
        "numReviews": 68,
        "numStars": 0,
        "position": 51,
        "reviewText": "",
        "state": " WA"
    },
    {
        "city": "Brevard",
        "distance": "6.3 mi",
        "id": "777382",
        "lat": 35.2334472,
        "long": -82.7342919,
        "name": "The Best of Dupont: Burn\u2026",
        "numReviews": 77,
        "numStars": 0,
        "position": 52,
        "reviewText": "",
        "state": " NC"
    },
    {
        "city": "Jefferson",
        "distance": "22.8 mi",
        "id": "65904",
        "lat": 39.5800298,
        "long": -105.2662931,
        "name": "Kenosha Pass to Georgia\u2026",
        "numReviews": 104,
        "numStars": 0,
        "position": 53,
        "reviewText": "",
        "state": " CO"
    },
    {
        "city": "Keystone",
        "distance": "16.0 mi",
        "id": "5691391",
        "lat": 39.5791675,
        "long": -105.9347384,
        "name": "Keystone Gulch to Soda C\u2026",
        "numReviews": 92,
        "numStars": 0,
        "position": 54,
        "reviewText": "",
        "state": " CO"
    },
    {
        "city": "Jemez Pueblo",
        "distance": "8.4 mi",
        "id": "206544",
        "lat": 35.6139173,
        "long": -106.725868,
        "name": "White Ridge Trail System\u2026",
        "numReviews": 79,
        "numStars": 0,
        "position": 55,
        "reviewText": "",
        "state": " NM"
    },
    {
        "city": "Eagle",
        "distance": "8.6 mi",
        "id": "4362647",
        "lat": 39.6552634,
        "long": -106.8286507,
        "name": "Pool and Ice Rink Loop",
        "numReviews": 89,
        "numStars": 0,
        "position": 56,
        "reviewText": "",
        "state": " CO"
    },
    {
        "city": "Santa Venetia",
        "distance": "8.7 mi",
        "id": "4147092",
        "lat": 37.9985338,
        "long": -122.5252541,
        "name": "China Camp State Park Loop",
        "numReviews": 84,
        "numStars": 0,
        "position": 57,
        "reviewText": "",
        "state": " CA"
    },
    {
        "city": "Moab",
        "distance": "100.7 mi",
        "id": "205150",
        "lat": 38.5733155,
        "long": -109.5498395,
        "name": "White Rim Trail",
        "numReviews": 53,
        "numStars": 0,
        "position": 58,
        "reviewText": "",
        "state": " UT"
    },
    {
        "city": "Auburn Lake Trails",
        "distance": "11.0 mi",
        "id": "1800627",
        "lat": 38.9143434,
        "long": -120.9524408,
        "name": "Foresthill Divide",
        "numReviews": 80,
        "numStars": 0,
        "position": 59,
        "reviewText": "",
        "state": " CA"
    },
    {
        "city": "Colorado Springs",
        "distance": "13.5 mi",
        "id": "270021",
        "lat": 38.8338816,
        "long": -104.8213634,
        "name": "Chutes - Gold Camp Rd -\u2026",
        "numReviews": 101,
        "numStars": 0,
        "position": 60,
        "reviewText": "",
        "state": " CO"
    },
    {
        "city": "Crested Butte",
        "distance": "7.5 mi",
        "id": "656218",
        "lat": 38.8697146,
        "long": -106.9878231,
        "name": "Strand Hill",
        "numReviews": 84,
        "numStars": 0,
        "position": 61,
        "reviewText": "",
        "state": " CO"
    },
    {
        "city": "Loma",
        "distance": "3.9 mi",
        "id": "252364",
        "lat": 39.1958139,
        "long": -108.813158,
        "name": "Rustler's Loop",
        "numReviews": 101,
        "numStars": 0,
        "position": 62,
        "reviewText": "",
        "state": " CO"
    },
    {
        "city": "Mint Hill",
        "distance": "10.3 mi",
        "id": "901333",
        "lat": 35.1735404,
        "long": -80.6570304,
        "name": "Sherman Branch",
        "numReviews": 83,
        "numStars": 0,
        "position": 63,
        "reviewText": "",
        "state": " NC"
    },
    {
        "city": "Evergreen",
        "distance": "13.0 mi",
        "id": "6040893",
        "lat": 39.6333213,
        "long": -105.3172146,
        "name": "Alderfer/Three Sisters/D\u2026",
        "numReviews": 127,
        "numStars": 0,
        "position": 64,
        "reviewText": "",
        "state": " CO"
    },
    {
        "city": "Morrison",
        "distance": "8.2 mi",
        "id": "605907",
        "lat": 39.6535988,
        "long": -105.1910996,
        "name": "Dakota Ridge / Red Rocks\u2026",
        "numReviews": 118,
        "numStars": 0,
        "position": 65,
        "reviewText": "",
        "state": " CO"
    },
    {
        "city": "Crested Butte",
        "distance": "18.9 mi",
        "id": "651609",
        "lat": 38.8697146,
        "long": -106.9878231,
        "name": "Reno/Flag/Bear/Deadman's\u2026",
        "numReviews": 83,
        "numStars": 0,
        "position": 66,
        "reviewText": "",
        "state": " CO"
    },
    {
        "city": "Flowing Wells",
        "distance": "7.7 mi",
        "id": "4728806",
        "lat": 32.2939638,
        "long": -111.0098178,
        "name": "Sweetwater Trail System",
        "numReviews": 77,
        "numStars": 0,
        "position": 67,
        "reviewText": "",
        "state": " AZ"
    },
    {
        "city": "Eagan",
        "distance": "7.2 mi",
        "id": "3794768",
        "lat": 44.8041322,
        "long": -93.1668858,
        "name": "Lebanon Hills - Beginner\u2026",
        "numReviews": 74,
        "numStars": 0,
        "position": 68,
        "reviewText": "",
        "state": " MN"
    },
    {
        "city": "Coal Creek",
        "distance": "7.8 mi",
        "id": "601365",
        "lat": 39.9063757,
        "long": -105.3774934,
        "name": "Walker Ranch",
        "numReviews": 174,
        "numStars": 0,
        "position": 69,
        "reviewText": "",
        "state": " CO"
    },
    {
        "city": "La Verne",
        "distance": "10.4 mi",
        "id": "5025822",
        "lat": 34.1008426,
        "long": -117.7678355,
        "name": "Marshall Canyon",
        "numReviews": 72,
        "numStars": 0,
        "position": 70,
        "reviewText": "",
        "state": " CA"
    },
    {
        "city": "Catalina",
        "distance": "19.5 mi",
        "id": "5400693",
        "lat": 32.5000731,
        "long": -110.9212146,
        "name": "Honeybee Canyon Loop",
        "numReviews": 66,
        "numStars": 0,
        "position": 71,
        "reviewText": "",
        "state": " AZ"
    },
    {
        "city": "Oak Cliff Place",
        "distance": "9.4 mi",
        "id": "7000305",
        "lat": 29.92520429999999,
        "long": -95.623453,
        "name": "Cypress Creek Trail",
        "numReviews": 60,
        "numStars": 0,
        "position": 72,
        "reviewText": "",
        "state": " TX"
    },
    {
        "city": "Boise",
        "distance": "10.1 mi",
        "id": "5787459",
        "lat": 43.6150186,
        "long": -116.2023137,
        "name": "Around the Mountain",
        "numReviews": 68,
        "numStars": 0,
        "position": 73,
        "reviewText": "",
        "state": " ID"
    },
    {
        "city": "Deschutes River Woods",
        "distance": "13.4 mi",
        "id": "21540",
        "lat": 43.9915056,
        "long": -121.3583642,
        "name": "Funner-Tiddlywinks",
        "numReviews": 69,
        "numStars": 0,
        "position": 74,
        "reviewText": "",
        "state": " OR"
    },
    {
        "city": "Fullerton",
        "distance": "11.2 mi",
        "id": "3000688",
        "lat": 33.8703645,
        "long": -117.9242123,
        "name": "Fullerton Loop",
        "numReviews": 86,
        "numStars": 0,
        "position": 75,
        "reviewText": "",
        "state": " CA"
    },
    {
        "city": "Holly Springs",
        "distance": "12.3 mi",
        "id": "7000141",
        "lat": 34.1739857,
        "long": -84.5013187,
        "name": "Blankets Creek Full Tour",
        "numReviews": 73,
        "numStars": 0,
        "position": 76,
        "reviewText": "",
        "state": " GA"
    },
    {
        "city": "LaVerkin",
        "distance": "24.1 mi",
        "id": "4091943",
        "lat": 37.2051385,
        "long": -113.2721584,
        "name": "Hurricane Rim Loop - IMB\u2026",
        "numReviews": 73,
        "numStars": 0,
        "position": 77,
        "reviewText": "",
        "state": " UT"
    },
    {
        "city": "Crockett",
        "distance": "13.3 mi",
        "id": "7001971",
        "lat": 38.0524208,
        "long": -122.2130236,
        "name": "Crockett Hills",
        "numReviews": 81,
        "numStars": 0,
        "position": 78,
        "reviewText": "",
        "state": " CA"
    },
    {
        "city": "Angel Fire",
        "distance": "21.4 mi",
        "id": "4073073",
        "lat": 36.3930879,
        "long": -105.2850091,
        "name": "South Boundary Trail #16\u2026",
        "numReviews": 63,
        "numStars": 0,
        "position": 79,
        "reviewText": "",
        "state": " NM"
    },
    {
        "city": "Salt Lake City",
        "distance": "6.6 mi",
        "id": "967440",
        "lat": 40.7607793,
        "long": -111.8910474,
        "name": "Bobsled via Bonneville S\u2026",
        "numReviews": 71,
        "numStars": 0,
        "position": 80,
        "reviewText": "",
        "state": " UT"
    },
    {
        "city": "Champlin",
        "distance": "10.1 mi",
        "id": "4403021",
        "lat": 45.1888539,
        "long": -93.39745370000001,
        "name": "Elm Creek - 10 mile Ride",
        "numReviews": 71,
        "numStars": 0,
        "position": 81,
        "reviewText": "",
        "state": " MN"
    },
    {
        "city": "Castle Rock",
        "distance": "9.9 mi",
        "id": "593930",
        "lat": 39.3722121,
        "long": -104.8560902,
        "name": "Ridgeline Open Space",
        "numReviews": 130,
        "numStars": 0,
        "position": 82,
        "reviewText": "",
        "state": " CO"
    },
    {
        "city": "Salida",
        "distance": "23.1 mi",
        "id": "6309603",
        "lat": 38.5347193,
        "long": -105.9989022,
        "name": "Cottonwood Tour",
        "numReviews": 71,
        "numStars": 0,
        "position": 83,
        "reviewText": "",
        "state": " CO"
    },
    {
        "city": "Palisade",
        "distance": "8.5 mi",
        "id": "4276238",
        "lat": 39.1102587,
        "long": -108.3509193,
        "name": "Palisade Rim",
        "numReviews": 73,
        "numStars": 0,
        "position": 84,
        "reviewText": "",
        "state": " CO"
    },
    {
        "city": "West Sedona",
        "distance": "9.1 mi",
        "id": "4956607",
        "lat": 34.8672398,
        "long": -111.8054345,
        "name": "Chuckwagon - Mescal - Lo\u2026",
        "numReviews": 61,
        "numStars": 0,
        "position": 85,
        "reviewText": "",
        "state": " AZ"
    },
    {
        "city": "Bent Creek",
        "distance": "13.6 mi",
        "id": "3408618",
        "lat": 35.5090006,
        "long": -82.60790279999999,
        "name": "Green's Lick / Ingles Fi\u2026",
        "numReviews": 68,
        "numStars": 0,
        "position": 86,
        "reviewText": "",
        "state": " NC"
    },
    {
        "city": "Truckee",
        "distance": "16.9 mi",
        "id": "1476413",
        "lat": 39.327962,
        "long": -120.1832533,
        "name": "Hole in the Ground Loop",
        "numReviews": 68,
        "numStars": 0,
        "position": 87,
        "reviewText": "",
        "state": " CA"
    },
    {
        "city": "The Pinery",
        "distance": "6.9 mi",
        "id": "7003022",
        "lat": 39.4552671,
        "long": -104.7344187,
        "name": "Hidden Mesa",
        "numReviews": 77,
        "numStars": 0,
        "position": 88,
        "reviewText": "",
        "state": " CO"
    },
    {
        "city": "Central City",
        "distance": "10.9 mi",
        "id": "6245950",
        "lat": 39.8019322,
        "long": -105.5141639,
        "name": "Blue Grouse - Mule Deer\u2026",
        "numReviews": 76,
        "numStars": 0,
        "position": 89,
        "reviewText": "",
        "state": " CO"
    },
    {
        "city": "Lyons",
        "distance": "8.0 mi",
        "id": "52119",
        "lat": 40.2247075,
        "long": -105.271378,
        "name": "Heil Ranch",
        "numReviews": 135,
        "numStars": 0,
        "position": 90,
        "reviewText": "",
        "state": " CO"
    },
    {
        "city": "Bynum",
        "distance": "10.5 mi",
        "id": "238251",
        "lat": 33.6131592,
        "long": -85.9610793,
        "name": "Bomb Dog Loop - Coldwate\u2026",
        "numReviews": 62,
        "numStars": 0,
        "position": 91,
        "reviewText": "",
        "state": " AL"
    },
    {
        "city": "Superior",
        "distance": "10.4 mi",
        "id": "520343",
        "lat": 39.95276339999999,
        "long": -105.1685977,
        "name": "Marshall Mesa - Doudy Dr\u2026",
        "numReviews": 80,
        "numStars": 0,
        "position": 92,
        "reviewText": "",
        "state": " CO"
    },
    {
        "city": "Village of Oak Creek (Big Park)",
        "distance": "12.4 mi",
        "id": "4932230",
        "lat": 34.780297,
        "long": -111.7626535,
        "name": "Cathedral Rock Big Loop",
        "numReviews": 61,
        "numStars": 0,
        "position": 93,
        "reviewText": "",
        "state": " AZ"
    },
    {
        "city": "Saint George",
        "distance": "11.2 mi",
        "id": "4292802",
        "lat": 37.0965278,
        "long": -113.5684164,
        "name": "Bearclaw Poppy and Snake\u2026",
        "numReviews": 70,
        "numStars": 0,
        "position": 94,
        "reviewText": "",
        "state": " UT"
    },
    {
        "city": "Blue Diamond",
        "distance": "10.5 mi",
        "id": "793991",
        "lat": 36.0463595,
        "long": -115.4038924,
        "name": "Blue Diamond Loop",
        "numReviews": 61,
        "numStars": 0,
        "position": 95,
        "reviewText": "",
        "state": " NV"
    },
    {
        "city": "Fountain Hills",
        "distance": "11.7 mi",
        "id": "908542",
        "lat": 33.6042079,
        "long": -111.7256936,
        "name": "Hawes Trail Network: Haw\u2026",
        "numReviews": 59,
        "numStars": 0,
        "position": 96,
        "reviewText": "",
        "state": " AZ"
    },
    {
        "city": "Moab",
        "distance": "14.6 mi",
        "id": "616805",
        "lat": 38.5733155,
        "long": -109.5498395,
        "name": "Klondike Bluff Outer Loop",
        "numReviews": 67,
        "numStars": 0,
        "position": 97,
        "reviewText": "",
        "state": " UT"
    },
    {
        "city": "Cheyenne",
        "distance": "25.2 mi",
        "id": "3801032",
        "lat": 41.1399814,
        "long": -104.8202462,
        "name": "Curt Gowdy State Park -\u2026",
        "numReviews": 59,
        "numStars": 0,
        "position": 98,
        "reviewText": "",
        "state": " WY"
    },
    {
        "city": "Fishers",
        "distance": "6.6 mi",
        "id": "1368043",
        "lat": 39.9567548,
        "long": -86.01335,
        "name": "Town Run Trail",
        "numReviews": 70,
        "numStars": 0,
        "position": 99,
        "reviewText": "",
        "state": " IN"
    },
    {
        "city": "Guadalupe",
        "distance": "17.5 mi",
        "id": "543516",
        "lat": 33.3708798,
        "long": -111.9629216,
        "name": "Desert Classic",
        "numReviews": 73,
        "numStars": 0,
        "position": 100,
        "reviewText": "",
        "state": " AZ"
    },
    {
        "city": "Brevard",
        "distance": "12.2 mi",
        "id": "5771119",
        "lat": 35.2334472,
        "long": -82.7342919,
        "name": "Black Mountain Loop",
        "numReviews": 37,
        "numStars": 0,
        "position": 101,
        "reviewText": "",
        "state": " NC"
    },
    {
        "city": "Kernville",
        "distance": "25.5 mi",
        "id": "5746950",
        "lat": 35.75467320000001,
        "long": -118.4253627,
        "name": "Cannell Trail - IMBA EPIC",
        "numReviews": 54,
        "numStars": 0,
        "position": 102,
        "reviewText": "",
        "state": " CA"
    },
    {
        "city": "Wooster",
        "distance": "6.3 mi",
        "id": "706995",
        "lat": 40.8050565,
        "long": -81.935143,
        "name": "Vultures Knob",
        "numReviews": 59,
        "numStars": 0,
        "position": 103,
        "reviewText": "",
        "state": " OH"
    },
    {
        "city": "Ken Caryl",
        "distance": "10.2 mi",
        "id": "965209",
        "lat": 39.5758213,
        "long": -105.1122088,
        "name": "Deer Creek Canyon",
        "numReviews": 70,
        "numStars": 0,
        "position": 104,
        "reviewText": "",
        "state": " CO"
    },
    {
        "city": "Granite Bay",
        "distance": "7.3 mi",
        "id": "2503849",
        "lat": 38.7632345,
        "long": -121.1638361,
        "name": "Granite Bay Trail",
        "numReviews": 68,
        "numStars": 0,
        "position": 105,
        "reviewText": "",
        "state": " CA"
    },
    {
        "city": "Cave Creek",
        "distance": "13.4 mi",
        "id": "4848396",
        "lat": 33.8333716,
        "long": -111.9507042,
        "name": "Sonoran Desert Loop",
        "numReviews": 52,
        "numStars": 0,
        "position": 106,
        "reviewText": "",
        "state": " AZ"
    },
    {
        "city": "Waterford",
        "distance": "9.0 mi",
        "id": "876158",
        "lat": 42.6907443,
        "long": -83.4066132,
        "name": "Pontiac Lake Recreation\u2026",
        "numReviews": 67,
        "numStars": 0,
        "position": 107,
        "reviewText": "",
        "state": " MI"
    },
    {
        "city": "Flower Mound",
        "distance": "21.3 mi",
        "id": "7022756",
        "lat": 33.0145673,
        "long": -97.0969552,
        "name": "Northshore Trail",
        "numReviews": 57,
        "numStars": 0,
        "position": 108,
        "reviewText": "",
        "state": " TX"
    },
    {
        "city": "Flagstaff",
        "distance": "11.5 mi",
        "id": "756111",
        "lat": 35.1982836,
        "long": -111.651302,
        "name": "Schultz Pass Loop",
        "numReviews": 47,
        "numStars": 0,
        "position": 109,
        "reviewText": "",
        "state": " AZ"
    },
    {
        "city": "Laporte",
        "distance": "11.0 mi",
        "id": "340244",
        "lat": 40.62637110000001,
        "long": -105.1377578,
        "name": "Blue Sky to Indian Summer",
        "numReviews": 70,
        "numStars": 0,
        "position": 110,
        "reviewText": "",
        "state": " CO"
    },
    {
        "city": "Superior",
        "distance": "15.7 mi",
        "id": "255931",
        "lat": 39.95276339999999,
        "long": -105.1685977,
        "name": "Dirty Bismark",
        "numReviews": 152,
        "numStars": 0,
        "position": 111,
        "reviewText": "",
        "state": " CO"
    },
    {
        "city": "Cascade-Chipita Park",
        "distance": "14.2 mi",
        "id": "3264128",
        "lat": 38.9204464,
        "long": -104.9972562,
        "name": "Rampart Reservoir Trail",
        "numReviews": 69,
        "numStars": 0,
        "position": 112,
        "reviewText": "",
        "state": " CO"
    },
    {
        "city": "Lewis Center",
        "distance": "5.4 mi",
        "id": "4081038",
        "lat": 40.1983884,
        "long": -83.0100987,
        "name": "Alum Creek Phase 2 Trail",
        "numReviews": 67,
        "numStars": 0,
        "position": 113,
        "reviewText": "",
        "state": " OH"
    },
    {
        "city": "Keystone",
        "distance": "16.1 mi",
        "id": "68099",
        "lat": 39.5791675,
        "long": -105.9347384,
        "name": "Galena Gulch to Colorado\u2026",
        "numReviews": 59,
        "numStars": 0,
        "position": 114,
        "reviewText": "",
        "state": " CO"
    },
    {
        "city": "Piedmont",
        "distance": "10.0 mi",
        "id": "4678381",
        "lat": 37.8243715,
        "long": -122.231635,
        "name": "Joaquin Miller - Best of\u2026",
        "numReviews": 60,
        "numStars": 0,
        "position": 115,
        "reviewText": "",
        "state": " CA"
    },
    {
        "city": "Darnestown",
        "distance": "11.1 mi",
        "id": "626773",
        "lat": 39.1034409,
        "long": -77.2908166,
        "name": "Schaeffer Farms Grand Tour",
        "numReviews": 62,
        "numStars": 0,
        "position": 116,
        "reviewText": "",
        "state": " MD"
    },
    {
        "city": "Brighton",
        "distance": "15.0 mi",
        "id": "2974534",
        "lat": 42.5294773,
        "long": -83.7802214,
        "name": "Island Lake Recreation A\u2026",
        "numReviews": 64,
        "numStars": 0,
        "position": 117,
        "reviewText": "",
        "state": " MI"
    },
    {
        "city": "Bridgewater",
        "distance": "12.9 mi",
        "id": "3771756",
        "lat": 38.38207060000001,
        "long": -78.97669599999999,
        "name": "Narrowback Mountain Loop",
        "numReviews": 59,
        "numStars": 0,
        "position": 118,
        "reviewText": "",
        "state": " VA"
    },
    {
        "city": "Superior",
        "distance": "12.6 mi",
        "id": "7002791",
        "lat": 39.95276339999999,
        "long": -105.1685977,
        "name": "Spring Brook Loop",
        "numReviews": 72,
        "numStars": 0,
        "position": 119,
        "reviewText": "",
        "state": " CO"
    },
    {
        "city": "West Pleasant View",
        "distance": "6.1 mi",
        "id": "3638243",
        "lat": 39.7327579,
        "long": -105.1790573,
        "name": "Green Mountain Novice Loop",
        "numReviews": 78,
        "numStars": 0,
        "position": 120,
        "reviewText": "",
        "state": " CO"
    },
    {
        "city": "Orchard Mesa",
        "distance": "12.1 mi",
        "id": "6321794",
        "lat": 39.0338692,
        "long": -108.5458275,
        "name": "Lunch Loop Trails - Gunn\u2026",
        "numReviews": 55,
        "numStars": 0,
        "position": 121,
        "reviewText": "",
        "state": " CO"
    },
    {
        "city": "Lithopolis",
        "distance": "8.6 mi",
        "id": "4057399",
        "lat": 39.8028415,
        "long": -82.8062848,
        "name": "Chestnut Ridge",
        "numReviews": 64,
        "numStars": 0,
        "position": 122,
        "reviewText": "",
        "state": " OH"
    },
    {
        "city": "Roxborough Park",
        "distance": "14.0 mi",
        "id": "1139477",
        "lat": 39.4591655,
        "long": -105.0786091,
        "name": "Indian Creek Loop - Trai\u2026",
        "numReviews": 89,
        "numStars": 0,
        "position": 123,
        "reviewText": "",
        "state": " CO"
    },
    {
        "city": "Coto De Caza",
        "distance": "21.8 mi",
        "id": "7000572",
        "lat": 33.5951048,
        "long": -117.5906715,
        "name": "San Juan Lollipop",
        "numReviews": 42,
        "numStars": 0,
        "position": 124,
        "reviewText": "",
        "state": " CA"
    },
    {
        "city": "Bentonville",
        "distance": "23.8 mi",
        "id": "5950735",
        "lat": 36.3728538,
        "long": -94.2088172,
        "name": "The Slaughter Pen - Blow\u2026",
        "numReviews": 42,
        "numStars": 0,
        "position": 125,
        "reviewText": "",
        "state": " AR"
    },
    {
        "city": "Nederland",
        "distance": "12.5 mi",
        "id": "6576183",
        "lat": 39.9613759,
        "long": -105.5108312,
        "name": "West Mag Backcountry Big\u2026",
        "numReviews": 48,
        "numStars": 0,
        "position": 126,
        "reviewText": "",
        "state": " CO"
    },
    {
        "city": "San Carlos",
        "distance": "7.4 mi",
        "id": "580385",
        "lat": 37.5071591,
        "long": -122.2605222,
        "name": "Water Dog Lake Park Loop",
        "numReviews": 62,
        "numStars": 0,
        "position": 127,
        "reviewText": "",
        "state": " CA"
    },
    {
        "city": "Moab",
        "distance": "3.7 mi",
        "id": "366223",
        "lat": 38.5733155,
        "long": -109.5498395,
        "name": "Moab Brand Trails - Lazy\u2026",
        "numReviews": 64,
        "numStars": 0,
        "position": 128,
        "reviewText": "",
        "state": " UT"
    },
    {
        "city": "Loma",
        "distance": "143.5 mi",
        "id": "221567",
        "lat": 39.1958139,
        "long": -108.813158,
        "name": "Kokopelli Trail",
        "numReviews": 34,
        "numStars": 0,
        "position": 129,
        "reviewText": "",
        "state": " CO"
    },
    {
        "city": "Lithia",
        "distance": "8.5 mi",
        "id": "7004485",
        "lat": 27.8187623,
        "long": -82.1496049,
        "name": "The Best of Alafia River\u2026",
        "numReviews": 40,
        "numStars": 0,
        "position": 130,
        "reviewText": "",
        "state": " FL"
    },
    {
        "city": "Roanoke",
        "distance": "13.4 mi",
        "id": "7024936",
        "lat": 37.2709704,
        "long": -79.9414266,
        "name": "Mill Mountain Full-Pull",
        "numReviews": 50,
        "numStars": 0,
        "position": 131,
        "reviewText": "",
        "state": " VA"
    },
    {
        "city": "Lawrence",
        "distance": "8.2 mi",
        "id": "809505",
        "lat": 39.8386516,
        "long": -86.0252612,
        "name": "Fort Benjamin Harrison S\u2026",
        "numReviews": 54,
        "numStars": 0,
        "position": 132,
        "reviewText": "",
        "state": " IN"
    },
    {
        "city": "Rio Verde",
        "distance": "15.4 mi",
        "id": "2501604",
        "lat": 33.7225429,
        "long": -111.6756942,
        "name": "Pemberton Loop",
        "numReviews": 64,
        "numStars": 0,
        "position": 133,
        "reviewText": "",
        "state": " AZ"
    },
    {
        "city": "Steamboat Springs",
        "distance": "26.0 mi",
        "id": "5671164",
        "lat": 40.4849769,
        "long": -106.8317158,
        "name": "The Divide Trail/Mountai\u2026",
        "numReviews": 49,
        "numStars": 0,
        "position": 134,
        "reviewText": "",
        "state": " CO"
    },
    {
        "city": "Bala-Cynwyd",
        "distance": "10.5 mi",
        "id": "7009980",
        "lat": 40.0131418,
        "long": -75.23040379999999,
        "name": "Wissahickon Loop",
        "numReviews": 46,
        "numStars": 0,
        "position": 135,
        "reviewText": "",
        "state": " PA"
    },
    {
        "city": "Carefree",
        "distance": "15.5 mi",
        "id": "7013387",
        "lat": 33.82226110000001,
        "long": -111.918203,
        "name": "Brown's Ranch Perimeter\u2026",
        "numReviews": 48,
        "numStars": 0,
        "position": 136,
        "reviewText": "",
        "state": " AZ"
    },
    {
        "city": "Pine Valley",
        "distance": "18.9 mi",
        "id": "3978385",
        "lat": 32.8214402,
        "long": -116.5291841,
        "name": "Noble Canyon Round Trip",
        "numReviews": 50,
        "numStars": 0,
        "position": 137,
        "reviewText": "",
        "state": " CA"
    },
    {
        "city": "Walled Lake",
        "distance": "8.9 mi",
        "id": "5511021",
        "lat": 42.537811,
        "long": -83.4810481,
        "name": "Lakeshore Park (Tree Farm)",
        "numReviews": 59,
        "numStars": 0,
        "position": 138,
        "reviewText": "",
        "state": " MI"
    },
    {
        "city": "Chatsworth",
        "distance": "23.6 mi",
        "id": "837843",
        "lat": 34.7659145,
        "long": -84.7699385,
        "name": "Mulberry Gap: Bear Creek\u2026",
        "numReviews": 50,
        "numStars": 0,
        "position": 139,
        "reviewText": "",
        "state": " GA"
    },
    {
        "city": "La Ca\u00f1ada Flintridge",
        "distance": "8.3 mi",
        "id": "7011443",
        "lat": 34.2068182,
        "long": -118.2000277,
        "name": "El Prieto Loop",
        "numReviews": 54,
        "numStars": 0,
        "position": 140,
        "reviewText": "",
        "state": " CA"
    },
    {
        "city": "Cricket",
        "distance": "33.0 mi",
        "id": "770094",
        "lat": 36.1715203,
        "long": -81.1939754,
        "name": "Kerr Scott - IMBA EPIC",
        "numReviews": 43,
        "numStars": 0,
        "position": 141,
        "reviewText": "",
        "state": " NC"
    },
    {
        "city": "Glendora",
        "distance": "16.1 mi",
        "id": "5407487",
        "lat": 34.1361187,
        "long": -117.865339,
        "name": "Lower Monroe Truck Trail",
        "numReviews": 59,
        "numStars": 0,
        "position": 142,
        "reviewText": "",
        "state": " CA"
    },
    {
        "city": "Woods Cross",
        "distance": "12.5 mi",
        "id": "336906",
        "lat": 40.8716119,
        "long": -111.89216,
        "name": "Mueller Park",
        "numReviews": 60,
        "numStars": 0,
        "position": 143,
        "reviewText": "",
        "state": " UT"
    },
    {
        "city": "Woodbury",
        "distance": "4.2 mi",
        "id": "3520161",
        "lat": 44.9238552,
        "long": -92.9593797,
        "name": "Carver Lake Park",
        "numReviews": 53,
        "numStars": 0,
        "position": 144,
        "reviewText": "",
        "state": " MN"
    },
    {
        "city": "Balm",
        "distance": "14.8 mi",
        "id": "5845174",
        "lat": 27.7594736,
        "long": -82.2612017,
        "name": "Best of Balm Boyette",
        "numReviews": 26,
        "numStars": 0,
        "position": 145,
        "reviewText": "",
        "state": " FL"
    },
    {
        "city": "Copper Mountain",
        "distance": "19.3 mi",
        "id": "380438",
        "lat": 39.502141,
        "long": -106.1509952,
        "name": "Colorado Trail: Copper M\u2026",
        "numReviews": 48,
        "numStars": 0,
        "position": 146,
        "reviewText": "",
        "state": " CO"
    },
    {
        "city": "Crested Butte",
        "distance": "22.3 mi",
        "id": "7003580",
        "lat": 38.8697146,
        "long": -106.9878231,
        "name": "Snodgrass, Lupine, Lower\u2026",
        "numReviews": 52,
        "numStars": 0,
        "position": 147,
        "reviewText": "",
        "state": " CO"
    },
    {
        "city": "Portola Hills",
        "distance": "7.7 mi",
        "id": "7004137",
        "lat": 33.6791872,
        "long": -117.6311605,
        "name": "The Luge Loop",
        "numReviews": 48,
        "numStars": 0,
        "position": 148,
        "reviewText": "",
        "state": " CA"
    },
    {
        "city": "Panguitch",
        "distance": "15.9 mi",
        "id": "7035124",
        "lat": 37.82275509999999,
        "long": -112.4357638,
        "name": "Thunder Mountain Ride",
        "numReviews": 35,
        "numStars": 0,
        "position": 149,
        "reviewText": "",
        "state": " UT"
    },
    {
        "city": "Bridgewater",
        "distance": "13.5 mi",
        "id": "3770932",
        "lat": 38.38207060000001,
        "long": -78.97669599999999,
        "name": "Lookout Mountain Loop",
        "numReviews": 50,
        "numStars": 0,
        "position": 150,
        "reviewText": "",
        "state": " VA"
    },
    {
        "city": "Deschutes River Woods",
        "distance": "26.4 mi",
        "id": "20372",
        "lat": 43.9915056,
        "long": -121.3583642,
        "name": "Swampy to Mrazek",
        "numReviews": 26,
        "numStars": 0,
        "position": 151,
        "reviewText": "",
        "state": " OR"
    },
    {
        "city": "Crested Butte",
        "distance": "7.3 mi",
        "id": "50899",
        "lat": 38.8697146,
        "long": -106.9878231,
        "name": "Snodgrass",
        "numReviews": 56,
        "numStars": 0,
        "position": 152,
        "reviewText": "",
        "state": " CO"
    },
    {
        "city": "Pleasure Ridge Park",
        "distance": "6.2 mi",
        "id": "88916",
        "lat": 38.14534769999999,
        "long": -85.8582969,
        "name": "Waverly Park",
        "numReviews": 51,
        "numStars": 0,
        "position": 153,
        "reviewText": "",
        "state": " KY"
    },
    {
        "city": "Santa Cruz",
        "distance": "14.1 mi",
        "id": "7019596",
        "lat": 36.9741171,
        "long": -122.0307963,
        "name": "Wilder Ranch Singletrack\u2026",
        "numReviews": 40,
        "numStars": 0,
        "position": 154,
        "reviewText": "",
        "state": " CA"
    },
    {
        "city": "Gainesville",
        "distance": "18.4 mi",
        "id": "7000014",
        "lat": 34.2978794,
        "long": -83.8240663,
        "name": "Chicopee Woods Intermedi\u2026",
        "numReviews": 52,
        "numStars": 0,
        "position": 155,
        "reviewText": "",
        "state": " GA"
    },
    {
        "city": "Steamboat Springs",
        "distance": "10.4 mi",
        "id": "5638024",
        "lat": 40.4849769,
        "long": -106.8317158,
        "name": "Spring Creek Trail",
        "numReviews": 51,
        "numStars": 0,
        "position": 156,
        "reviewText": "",
        "state": " CO"
    },
    {
        "city": "Middlebush",
        "distance": "13.8 mi",
        "id": "7000392",
        "lat": 40.4977182,
        "long": -74.52932539999999,
        "name": "Six Mile Run",
        "numReviews": 42,
        "numStars": 0,
        "position": 157,
        "reviewText": "",
        "state": " NJ"
    },
    {
        "city": "Oakridge",
        "distance": "24.1 mi",
        "id": "4311782",
        "lat": 43.7465124,
        "long": -122.4617159,
        "name": "A-T-C-A",
        "numReviews": 41,
        "numStars": 0,
        "position": 158,
        "reviewText": "",
        "state": " OR"
    },
    {
        "city": "Dahlonega",
        "distance": "25.2 mi",
        "id": "523830",
        "lat": 34.5261465,
        "long": -83.9843953,
        "name": "Bull and Jake Mountain -\u2026",
        "numReviews": 44,
        "numStars": 0,
        "position": 159,
        "reviewText": "",
        "state": " GA"
    },
    {
        "city": "Banks",
        "distance": "7.4 mi",
        "id": "3896788",
        "lat": 45.61777559999999,
        "long": -123.1144058,
        "name": "Browns Camp Loop",
        "numReviews": 46,
        "numStars": 0,
        "position": 160,
        "reviewText": "",
        "state": " OR"
    },
    {
        "city": "Boone",
        "distance": "6.9 mi",
        "id": "942434",
        "lat": 36.216795,
        "long": -81.6745517,
        "name": "Rocky Knob Park",
        "numReviews": 47,
        "numStars": 0,
        "position": 161,
        "reviewText": "",
        "state": " NC"
    },
    {
        "city": "Sanford",
        "distance": "10.4 mi",
        "id": "5392275",
        "lat": 35.4798757,
        "long": -79.1802994,
        "name": "San Lee Full Tour",
        "numReviews": 51,
        "numStars": 0,
        "position": 162,
        "reviewText": "",
        "state": " NC"
    },
    {
        "city": "Lyons",
        "distance": "14.6 mi",
        "id": "7025541",
        "lat": 40.2247075,
        "long": -105.271378,
        "name": "Picture Rock/Wild Turkey\u2026",
        "numReviews": 49,
        "numStars": 0,
        "position": 163,
        "reviewText": "",
        "state": " CO"
    },
    {
        "city": "Snowmass Village",
        "distance": "11.0 mi",
        "id": "951198",
        "lat": 39.2130418,
        "long": -106.9378207,
        "name": "Rim Trail Loop",
        "numReviews": 46,
        "numStars": 0,
        "position": 164,
        "reviewText": "",
        "state": " CO"
    },
    {
        "city": "Spring Valley",
        "distance": "77.5 mi",
        "id": "7000113",
        "lat": 34.3450288,
        "long": -112.1590486,
        "name": "Black Canyon Trail (BCT)\u2026",
        "numReviews": 32,
        "numStars": 0,
        "position": 165,
        "reviewText": "",
        "state": " AZ"
    },
    {
        "city": "Kittredge",
        "distance": "10.7 mi",
        "id": "6325718",
        "lat": 39.6547101,
        "long": -105.2997139,
        "name": "Elk Meadow & Bergen Peak\u2026",
        "numReviews": 57,
        "numStars": 0,
        "position": 166,
        "reviewText": "",
        "state": " CO"
    },
    {
        "city": "Ridgway",
        "distance": "20.1 mi",
        "id": "7003702",
        "lat": 38.1525873,
        "long": -107.7556162,
        "name": "Seize the Cheese",
        "numReviews": 38,
        "numStars": 0,
        "position": 167,
        "reviewText": "",
        "state": " CO"
    },
    {
        "city": "Rockford",
        "distance": "8.5 mi",
        "id": "3927737",
        "lat": 43.1200272,
        "long": -85.5600316,
        "name": "Luton Park",
        "numReviews": 55,
        "numStars": 0,
        "position": 168,
        "reviewText": "",
        "state": " MI"
    },
    {
        "city": "Roxborough Park",
        "distance": "547.4 mi",
        "id": "479729",
        "lat": 39.4591655,
        "long": -105.0786091,
        "name": "Colorado Trail: The Enti\u2026",
        "numReviews": 17,
        "numStars": 0,
        "position": 169,
        "reviewText": "",
        "state": " CO"
    },
    {
        "city": "Santa Rosa",
        "distance": "16.7 mi",
        "id": "301094",
        "lat": 38.440429,
        "long": -122.7140548,
        "name": "Trione-Annadel State Par\u2026",
        "numReviews": 45,
        "numStars": 0,
        "position": 170,
        "reviewText": "",
        "state": " CA"
    },
    {
        "city": "Guadalupe",
        "distance": "9.7 mi",
        "id": "475329",
        "lat": 33.3708798,
        "long": -111.9629216,
        "name": "East National Loop",
        "numReviews": 43,
        "numStars": 0,
        "position": 171,
        "reviewText": "",
        "state": " AZ"
    },
    {
        "city": "Morrison",
        "distance": "19.8 mi",
        "id": "700918",
        "lat": 39.6535988,
        "long": -105.1910996,
        "name": "Mount Falcon and Lair O'\u2026",
        "numReviews": 57,
        "numStars": 0,
        "position": 172,
        "reviewText": "",
        "state": " CO"
    },
    {
        "city": "Hurricane",
        "distance": "7.9 mi",
        "id": "4167308",
        "lat": 37.1752607,
        "long": -113.2899484,
        "name": "Gooseberry Mesa - South\u2026",
        "numReviews": 42,
        "numStars": 0,
        "position": 173,
        "reviewText": "",
        "state": " UT"
    },
    {
        "city": "Russell",
        "distance": "22.1 mi",
        "id": "5382478",
        "lat": 38.8952893,
        "long": -98.8598061,
        "name": "Switchgrass Epic Mountai\u2026",
        "numReviews": 43,
        "numStars": 0,
        "position": 174,
        "reviewText": "",
        "state": " KS"
    },
    {
        "city": "Gunnison",
        "distance": "12.4 mi",
        "id": "7006733",
        "lat": 38.5458246,
        "long": -106.9253207,
        "name": "Hartman Rocks",
        "numReviews": 41,
        "numStars": 0,
        "position": 175,
        "reviewText": "",
        "state": " CO"
    },
    {
        "city": "Richmond",
        "distance": "17.9 mi",
        "id": "886927",
        "lat": 37.5407246,
        "long": -77.4360481,
        "name": "James River Park System",
        "numReviews": 44,
        "numStars": 0,
        "position": 176,
        "reviewText": "",
        "state": " VA"
    },
    {
        "city": "Castle Rock",
        "distance": "6.7 mi",
        "id": "6479628",
        "lat": 39.3722121,
        "long": -104.8560902,
        "name": "Phillp S. Miller Park /\u2026",
        "numReviews": 61,
        "numStars": 0,
        "position": 177,
        "reviewText": "",
        "state": " CO"
    },
    {
        "city": "Weston",
        "distance": "8.2 mi",
        "id": "6447720",
        "lat": 26.1003654,
        "long": -80.3997748,
        "name": "Markham Park Full Lap",
        "numReviews": 38,
        "numStars": 0,
        "position": 178,
        "reviewText": "",
        "state": " FL"
    },
    {
        "city": "Cherokee",
        "distance": "5.2 mi",
        "id": "7026428",
        "lat": 35.4770574,
        "long": -83.3205859,
        "name": "Fire On The Mountain",
        "numReviews": 31,
        "numStars": 0,
        "position": 179,
        "reviewText": "",
        "state": " NC"
    },
    {
        "city": "Pike Creek",
        "distance": "12.2 mi",
        "id": "3689197",
        "lat": 39.7309451,
        "long": -75.704099,
        "name": "White Clay Creek State P\u2026",
        "numReviews": 25,
        "numStars": 0,
        "position": 180,
        "reviewText": "",
        "state": " DE"
    },
    {
        "city": "Ken Caryl",
        "distance": "5.2 mi",
        "id": "5992787",
        "lat": 39.5758213,
        "long": -105.1122088,
        "name": "Hildebrand Ranch",
        "numReviews": 65,
        "numStars": 0,
        "position": 181,
        "reviewText": "",
        "state": " CO"
    },
    {
        "city": "Keystone",
        "distance": "10.7 mi",
        "id": "4054132",
        "lat": 39.5791675,
        "long": -105.9347384,
        "name": "Soda Park Loop",
        "numReviews": 51,
        "numStars": 0,
        "position": 182,
        "reviewText": "",
        "state": " CO"
    },
    {
        "city": "Cave Creek",
        "distance": "23.2 mi",
        "id": "576134",
        "lat": 33.8333716,
        "long": -111.9507042,
        "name": "Cave Creek Cactus Classi\u2026",
        "numReviews": 23,
        "numStars": 0,
        "position": 183,
        "reviewText": "",
        "state": " AZ"
    },
    {
        "city": "Park City",
        "distance": "25.6 mi",
        "id": "3395723",
        "lat": 40.6460622,
        "long": -111.4979729,
        "name": "Park City Epic - IMBA EPIC",
        "numReviews": 38,
        "numStars": 0,
        "position": 184,
        "reviewText": "",
        "state": " UT"
    },
    {
        "city": "Ogden",
        "distance": "7.7 mi",
        "id": "349394",
        "lat": 41.223,
        "long": -111.9738304,
        "name": "Sardine Peak",
        "numReviews": 44,
        "numStars": 0,
        "position": 185,
        "reviewText": "",
        "state": " UT"
    },
    {
        "city": "Moab",
        "distance": "9.1 mi",
        "id": "171635",
        "lat": 38.5733155,
        "long": -109.5498395,
        "name": "Amasa Back / Cliffhanger",
        "numReviews": 47,
        "numStars": 0,
        "position": 186,
        "reviewText": "",
        "state": " UT"
    },
    {
        "city": "Loveland",
        "distance": "9.4 mi",
        "id": "2502863",
        "lat": 40.3977612,
        "long": -105.0749801,
        "name": "Ginny Trail via Powerlin\u2026",
        "numReviews": 56,
        "numStars": 0,
        "position": 187,
        "reviewText": "",
        "state": " CO"
    },
    {
        "city": "Sandia Heights",
        "distance": "10.0 mi",
        "id": "171088",
        "lat": 35.176931,
        "long": -106.490724,
        "name": "North Foothills, Elena G\u2026",
        "numReviews": 53,
        "numStars": 0,
        "position": 188,
        "reviewText": "",
        "state": " NM"
    },
    {
        "city": "Redway",
        "distance": "11.6 mi",
        "id": "5267279",
        "lat": 40.1201443,
        "long": -123.8233635,
        "name": "Paradise Royale Loop",
        "numReviews": 35,
        "numStars": 0,
        "position": 189,
        "reviewText": "",
        "state": " CA"
    },
    {
        "city": "Prior Lake",
        "distance": "9.8 mi",
        "id": "3522002",
        "lat": 44.7132969,
        "long": -93.4227274,
        "name": "Murphy Hanrehan",
        "numReviews": 48,
        "numStars": 0,
        "position": 190,
        "reviewText": "",
        "state": " MN"
    },
    {
        "city": "New Berlin",
        "distance": "5.1 mi",
        "id": "6576751",
        "lat": 42.9764027,
        "long": -88.1084224,
        "name": "Minooka Park Loop",
        "numReviews": 44,
        "numStars": 0,
        "position": 191,
        "reviewText": "",
        "state": " WI"
    },
    {
        "city": "Milford",
        "distance": "14.7 mi",
        "id": "7000974",
        "lat": 42.5916684,
        "long": -83.6003703,
        "name": "Highland Recreation A-B-\u2026",
        "numReviews": 44,
        "numStars": 0,
        "position": 192,
        "reviewText": "",
        "state": " MI"
    },
    {
        "city": "Lewis Center",
        "distance": "5.4 mi",
        "id": "4080717",
        "lat": 40.1983884,
        "long": -83.0100987,
        "name": "Alum Creek Phase 1 Trail",
        "numReviews": 56,
        "numStars": 0,
        "position": 193,
        "reviewText": "",
        "state": " OH"
    },
    {
        "city": "Lost Creek",
        "distance": "5.7 mi",
        "id": "389511",
        "lat": 30.2816932,
        "long": -97.83965649999999,
        "name": "Emma Long Motocross Park\u2026",
        "numReviews": 38,
        "numStars": 0,
        "position": 194,
        "reviewText": "",
        "state": " TX"
    },
    {
        "city": "Moab",
        "distance": "10.8 mi",
        "id": "624376",
        "lat": 38.5733155,
        "long": -109.5498395,
        "name": "Bar M Loops",
        "numReviews": 51,
        "numStars": 0,
        "position": 195,
        "reviewText": "",
        "state": " UT"
    },
    {
        "city": "Cedar Park",
        "distance": "7.7 mi",
        "id": "5390023",
        "lat": 30.505198,
        "long": -97.8202888,
        "name": "Brushy Creek: Mulligan a\u2026",
        "numReviews": 38,
        "numStars": 0,
        "position": 196,
        "reviewText": "",
        "state": " TX"
    },
    {
        "city": "Fairplay",
        "distance": "13.1 mi",
        "id": "7007954",
        "lat": 39.2247125,
        "long": -106.0019618,
        "name": "Sheep Creek Loop",
        "numReviews": 42,
        "numStars": 0,
        "position": 197,
        "reviewText": "",
        "state": " CO"
    },
    {
        "city": "Hood River",
        "distance": "9.8 mi",
        "id": "7014484",
        "lat": 45.7053966,
        "long": -121.5214623,
        "name": "Post Canyon Hot Lap",
        "numReviews": 25,
        "numStars": 0,
        "position": 198,
        "reviewText": "",
        "state": " OR"
    },
    {
        "city": "Wells Branch",
        "distance": "10.5 mi",
        "id": "5710290",
        "lat": 30.4460353,
        "long": -97.67945069999999,
        "name": "Walnut Creek Metro Park\u2026",
        "numReviews": 41,
        "numStars": 0,
        "position": 199,
        "reviewText": "",
        "state": " TX"
    },
    {
        "city": "South Lake Tahoe",
        "distance": "9.2 mi",
        "id": "792092",
        "lat": 38.939926,
        "long": -119.9771868,
        "name": "Sidewinder Corral Ride",
        "numReviews": 40,
        "numStars": 0,
        "position": 200,
        "reviewText": "",
        "state": " CA"
    },
    {
        "city": "Moab",
        "distance": "5.5 mi",
        "id": "592585",
        "lat": 38.5733155,
        "long": -109.5498395,
        "name": "Monitor Merrimac",
        "numReviews": 58,
        "numStars": 0,
        "position": 201,
        "reviewText": "",
        "state": " UT"
    },
    {
        "city": "Los Osos",
        "distance": "11.3 mi",
        "id": "5161377",
        "lat": 35.3072291,
        "long": -120.8384093,
        "name": "Oats Peak Trail",
        "numReviews": 42,
        "numStars": 0,
        "position": 202,
        "reviewText": "",
        "state": " CA"
    },
    {
        "city": "Boulder",
        "distance": "16.2 mi",
        "id": "850844",
        "lat": 40.0149856,
        "long": -105.2705456,
        "name": "Super Betasso",
        "numReviews": 50,
        "numStars": 0,
        "position": 203,
        "reviewText": "",
        "state": " CO"
    },
    {
        "city": "Comfort",
        "distance": "19.0 mi",
        "id": "3468214",
        "lat": 29.967715,
        "long": -98.90503369999999,
        "name": "Flat Rock Ranch, near Co\u2026",
        "numReviews": 36,
        "numStars": 0,
        "position": 204,
        "reviewText": "",
        "state": " TX"
    },
    {
        "city": "McConnellstown",
        "distance": "9.0 mi",
        "id": "658165",
        "lat": 40.4525739,
        "long": -78.0816724,
        "name": "Raystown Deer Trails and\u2026",
        "numReviews": 41,
        "numStars": 0,
        "position": 205,
        "reviewText": "",
        "state": " PA"
    },
    {
        "city": "Sun Valley",
        "distance": "17.7 mi",
        "id": "5893349",
        "lat": 43.6971294,
        "long": -114.3517172,
        "name": "Fisher Creek Loop",
        "numReviews": 43,
        "numStars": 0,
        "position": 206,
        "reviewText": "",
        "state": " ID"
    },
    {
        "city": "Steamboat Springs",
        "distance": "10.2 mi",
        "id": "7031094",
        "lat": 40.4849769,
        "long": -106.8317158,
        "name": "Emerald Mountain Flow Fest",
        "numReviews": 32,
        "numStars": 0,
        "position": 207,
        "reviewText": "",
        "state": " CO"
    },
    {
        "city": "Troutman",
        "distance": "26.8 mi",
        "id": "1103692",
        "lat": 35.7006921,
        "long": -80.88812949999999,
        "name": "Lake Norman State Park",
        "numReviews": 44,
        "numStars": 0,
        "position": 208,
        "reviewText": "",
        "state": " NC"
    },
    {
        "city": "Arkadelphia",
        "distance": "16.9 mi",
        "id": "836866",
        "lat": 34.1209292,
        "long": -93.0537839,
        "name": "Iron Mountain Mountain B\u2026",
        "numReviews": 36,
        "numStars": 0,
        "position": 209,
        "reviewText": "",
        "state": " AR"
    },
    {
        "city": "Carnuel",
        "distance": "9.4 mi",
        "id": "285392",
        "lat": 35.0639364,
        "long": -106.4572452,
        "name": "Tunnel, Otero, West Figu\u2026",
        "numReviews": 45,
        "numStars": 0,
        "position": 210,
        "reviewText": "",
        "state": " NM"
    },
    {
        "city": "Kittredge",
        "distance": "8.4 mi",
        "id": "3648013",
        "lat": 39.6547101,
        "long": -105.2997139,
        "name": "Elk Meadow/Bergen Peak Loop",
        "numReviews": 52,
        "numStars": 0,
        "position": 211,
        "reviewText": "",
        "state": " CO"
    },
    {
        "city": "Mount Ida",
        "distance": "35.5 mi",
        "id": "5415823",
        "lat": 34.5567637,
        "long": -93.6340814,
        "name": "Womble Trail - IMBA EPIC",
        "numReviews": 34,
        "numStars": 0,
        "position": 212,
        "reviewText": "",
        "state": " AR"
    },
    {
        "city": "Crosby",
        "distance": "20.8 mi",
        "id": "7016266",
        "lat": 46.4821848,
        "long": -93.9577611,
        "name": "Cuyuna Lakes Big Tour",
        "numReviews": 35,
        "numStars": 0,
        "position": 213,
        "reviewText": "",
        "state": " MN"
    },
    {
        "city": "Bryson City",
        "distance": "24.8 mi",
        "id": "3607752",
        "lat": 35.4309291,
        "long": -83.4473809,
        "name": "Tsali Left and Right Loo\u2026",
        "numReviews": 41,
        "numStars": 0,
        "position": 214,
        "reviewText": "",
        "state": " NC"
    },
    {
        "city": "Lake Orion",
        "distance": "5.8 mi",
        "id": "875491",
        "lat": 42.7844752,
        "long": -83.2396612,
        "name": "Addison Oaks County Park",
        "numReviews": 44,
        "numStars": 0,
        "position": 215,
        "reviewText": "",
        "state": " MI"
    },
    {
        "city": "Medina",
        "distance": "9.6 mi",
        "id": "692456",
        "lat": 41.143245,
        "long": -81.8552196,
        "name": "Medina Huffman and Reaga\u2026",
        "numReviews": 42,
        "numStars": 0,
        "position": 216,
        "reviewText": "",
        "state": " OH"
    },
    {
        "city": "Loma",
        "distance": "19.7 mi",
        "id": "5073920",
        "lat": 39.1958139,
        "long": -108.813158,
        "name": "Rabbit Valley to Western\u2026",
        "numReviews": 43,
        "numStars": 0,
        "position": 217,
        "reviewText": "",
        "state": " CO"
    },
    {
        "city": "La Ca\u00f1ada Flintridge",
        "distance": "8.8 mi",
        "id": "5240750",
        "lat": 34.2068182,
        "long": -118.2000277,
        "name": "Gabrielino Trail: JPL to\u2026",
        "numReviews": 47,
        "numStars": 0,
        "position": 218,
        "reviewText": "",
        "state": " CA"
    },
    {
        "city": "Santa Clara",
        "distance": "7.9 mi",
        "id": "918419",
        "lat": 37.1330355,
        "long": -113.6541266,
        "name": "Barrel Roll Lollipop",
        "numReviews": 47,
        "numStars": 0,
        "position": 219,
        "reviewText": "",
        "state": " UT"
    },
    {
        "city": "Monticello",
        "distance": "17.8 mi",
        "id": "3505586",
        "lat": 45.3055201,
        "long": -93.7941378,
        "name": "Bertram Chain of Lakes",
        "numReviews": 39,
        "numStars": 0,
        "position": 220,
        "reviewText": "",
        "state": " MN"
    },
    {
        "city": "Castaic",
        "distance": "19.0 mi",
        "id": "5629672",
        "lat": 34.4890363,
        "long": -118.6256552,
        "name": "Tapia Canyon Rd Singletrack",
        "numReviews": 36,
        "numStars": 0,
        "position": 221,
        "reviewText": "",
        "state": " CA"
    },
    {
        "city": "Kingman",
        "distance": "9.4 mi",
        "id": "1000455",
        "lat": 35.189443,
        "long": -114.0530065,
        "name": "Monolith Gardens",
        "numReviews": 42,
        "numStars": 0,
        "position": 222,
        "reviewText": "",
        "state": " AZ"
    },
    {
        "city": "Bozeman",
        "distance": "25.0 mi",
        "id": "846258",
        "lat": 45.6769979,
        "long": -111.0429339,
        "name": "Bangtail Divide - IMBA EPIC",
        "numReviews": 38,
        "numStars": 0,
        "position": 223,
        "reviewText": "",
        "state": " MT"
    },
    {
        "city": "Nederland",
        "distance": "7.9 mi",
        "id": "2214487",
        "lat": 39.9613759,
        "long": -105.5108312,
        "name": "West Magnolia Tour",
        "numReviews": 52,
        "numStars": 0,
        "position": 224,
        "reviewText": "",
        "state": " CO"
    },
    {
        "city": "Golden",
        "distance": "15.4 mi",
        "id": "5179902",
        "lat": 39.755543,
        "long": -105.2210997,
        "name": "North Table Mountain Par\u2026",
        "numReviews": 49,
        "numStars": 0,
        "position": 225,
        "reviewText": "",
        "state": " CO"
    },
    {
        "city": "Danbury",
        "distance": "8.2 mi",
        "id": "980037",
        "lat": 36.4093047,
        "long": -80.20588310000001,
        "name": "Moore's Springs Trails",
        "numReviews": 36,
        "numStars": 0,
        "position": 226,
        "reviewText": "",
        "state": " NC"
    },
    {
        "city": "Sedona",
        "distance": "8.5 mi",
        "id": "4915937",
        "lat": 34.8697395,
        "long": -111.7609896,
        "name": "Twin Buttes Loop",
        "numReviews": 37,
        "numStars": 0,
        "position": 227,
        "reviewText": "",
        "state": " AZ"
    },
    {
        "city": "Morrison",
        "distance": "7.8 mi",
        "id": "7003405",
        "lat": 39.6535988,
        "long": -105.1910996,
        "name": "Green Mountain Intermedi\u2026",
        "numReviews": 60,
        "numStars": 0,
        "position": 228,
        "reviewText": "",
        "state": " CO"
    },
    {
        "city": "Wade Hampton",
        "distance": "11.5 mi",
        "id": "7000059",
        "lat": 34.9037282,
        "long": -82.3331733,
        "name": "Paris Mountain State Park",
        "numReviews": 36,
        "numStars": 0,
        "position": 229,
        "reviewText": "",
        "state": " SC"
    },
    {
        "city": "Blue Diamond",
        "distance": "9.9 mi",
        "id": "360531",
        "lat": 36.0463595,
        "long": -115.4038924,
        "name": "3 Mile Smile via Badger\u2026",
        "numReviews": 40,
        "numStars": 0,
        "position": 230,
        "reviewText": "",
        "state": " NV"
    },
    {
        "city": "Lorton",
        "distance": "10.7 mi",
        "id": "5298304",
        "lat": 38.704282,
        "long": -77.2277603,
        "name": "Laurel Hill",
        "numReviews": 47,
        "numStars": 0,
        "position": 231,
        "reviewText": "",
        "state": " VA"
    },
    {
        "city": "Monroe",
        "distance": "9.6 mi",
        "id": "6020203",
        "lat": 44.3140116,
        "long": -123.2967637,
        "name": "Alsea Falls Trail System\u2026",
        "numReviews": 33,
        "numStars": 0,
        "position": 232,
        "reviewText": "",
        "state": " OR"
    },
    {
        "city": "Grand Canyon Village",
        "distance": "22.6 mi",
        "id": "3392750",
        "lat": 36.0544445,
        "long": -112.1401108,
        "name": "Rainbow Rim Trail #10",
        "numReviews": 30,
        "numStars": 0,
        "position": 233,
        "reviewText": "",
        "state": " AZ"
    },
    {
        "city": "Crater Lake",
        "distance": "71.8 mi",
        "id": "87559",
        "lat": 42.9445872,
        "long": -122.1090039,
        "name": "North Umpqua - IMBA EPIC",
        "numReviews": 32,
        "numStars": 0,
        "position": 234,
        "reviewText": "",
        "state": " OR"
    },
    {
        "city": "Thousand Oaks",
        "distance": "10.2 mi",
        "id": "547528",
        "lat": 34.1705609,
        "long": -118.8375937,
        "name": "Backbone Trail: Encinal\u2026",
        "numReviews": 42,
        "numStars": 0,
        "position": 235,
        "reviewText": "",
        "state": " CA"
    },
    {
        "city": "Hillsborough",
        "distance": "8.0 mi",
        "id": "7030660",
        "lat": 36.0754183,
        "long": -79.0997347,
        "name": "Brumley Forest Full Tour",
        "numReviews": 34,
        "numStars": 0,
        "position": 236,
        "reviewText": "",
        "state": " NC"
    },
    {
        "city": "Horse Pasture",
        "distance": "10.0 mi",
        "id": "7010510",
        "lat": 36.628471,
        "long": -79.9508749,
        "name": "Mountain Laurel Trail",
        "numReviews": 33,
        "numStars": 0,
        "position": 237,
        "reviewText": "",
        "state": " VA"
    },
    {
        "city": "Weldon Spring",
        "distance": "10.1 mi",
        "id": "3669719",
        "lat": 38.713386,
        "long": -90.6892929,
        "name": "Lost Valley Trail",
        "numReviews": 43,
        "numStars": 0,
        "position": 238,
        "reviewText": "",
        "state": " MO"
    },
    {
        "city": "Almaden Valley",
        "distance": "9.4 mi",
        "id": "7037277",
        "lat": 37.1889902,
        "long": -121.8448745,
        "name": "Rancho San Vicente and C\u2026",
        "numReviews": 34,
        "numStars": 0,
        "position": 239,
        "reviewText": "",
        "state": " CA"
    },
    {
        "city": "Harrisburg",
        "distance": "11.3 mi",
        "id": "7008754",
        "lat": 35.3237528,
        "long": -80.6559017,
        "name": "Rocky River",
        "numReviews": 30,
        "numStars": 0,
        "position": 240,
        "reviewText": "",
        "state": " NC"
    },
    {
        "city": "Bryson City",
        "distance": "14.9 mi",
        "id": "3641558",
        "lat": 35.4309291,
        "long": -83.4473809,
        "name": "Tsali Mouse Branch and T\u2026",
        "numReviews": 42,
        "numStars": 0,
        "position": 241,
        "reviewText": "",
        "state": " NC"
    },
    {
        "city": "Morrison",
        "distance": "14.3 mi",
        "id": "4422107",
        "lat": 39.6535988,
        "long": -105.1910996,
        "name": "Mount Falcon - The best\u2026",
        "numReviews": 51,
        "numStars": 0,
        "position": 242,
        "reviewText": "",
        "state": " CO"
    },
    {
        "city": "Indian Hills",
        "distance": "22.3 mi",
        "id": "1583185",
        "lat": 39.0860197,
        "long": -119.784069,
        "name": "Flume Loop",
        "numReviews": 37,
        "numStars": 0,
        "position": 243,
        "reviewText": "",
        "state": " NV"
    },
    {
        "city": "Pollock Pines",
        "distance": "6.5 mi",
        "id": "3261896",
        "lat": 38.7612923,
        "long": -120.5865935,
        "name": "Fleming Meadow Loop",
        "numReviews": 41,
        "numStars": 0,
        "position": 244,
        "reviewText": "",
        "state": " CA"
    },
    {
        "city": "Cambridge",
        "distance": "6.2 mi",
        "id": "577682",
        "lat": 43.0036122,
        "long": -89.0164995,
        "name": "Cam-Rock Park Area 3",
        "numReviews": 31,
        "numStars": 0,
        "position": 245,
        "reviewText": "",
        "state": " WI"
    },
    {
        "city": "Air Force Academy",
        "distance": "4.0 mi",
        "id": "712638",
        "lat": 38.9983573,
        "long": -104.8617533,
        "name": "Ute Valley Loop",
        "numReviews": 45,
        "numStars": 0,
        "position": 246,
        "reviewText": "",
        "state": " CO"
    },
    {
        "city": "Breckenridge",
        "distance": "12.0 mi",
        "id": "5510243",
        "lat": 39.4816537,
        "long": -106.0383518,
        "name": "Classic Breckenridge Route",
        "numReviews": 38,
        "numStars": 0,
        "position": 247,
        "reviewText": "",
        "state": " CO"
    },
    {
        "city": "Truckee",
        "distance": "15.0 mi",
        "id": "5642509",
        "lat": 39.327962,
        "long": -120.1832533,
        "name": "Emigrant Trail",
        "numReviews": 35,
        "numStars": 0,
        "position": 248,
        "reviewText": "",
        "state": " CA"
    },
    {
        "city": "Martinez",
        "distance": "12.2 mi",
        "id": "5129672",
        "lat": 33.5173577,
        "long": -82.0756734,
        "name": "FATS: Brown Wave & Skinny",
        "numReviews": 38,
        "numStars": 0,
        "position": 249,
        "reviewText": "",
        "state": " GA"
    },
    {
        "city": "Frankfort",
        "distance": "8.8 mi",
        "id": "4263778",
        "lat": 44.6336096,
        "long": -86.23453959999999,
        "name": "Arcadia Dunes",
        "numReviews": 34,
        "numStars": 0,
        "position": 250,
        "reviewText": "",
        "state": " MI"
    },
    {
        "city": "Marlton",
        "distance": "10.6 mi",
        "id": "1565065",
        "lat": 38.7737258,
        "long": -76.7899697,
        "name": "Rosaryville SP - Perimet\u2026",
        "numReviews": 40,
        "numStars": 0,
        "position": 251,
        "reviewText": "",
        "state": " MD"
    },
    {
        "city": "Strongsville",
        "distance": "9.0 mi",
        "id": "662527",
        "lat": 41.3144966,
        "long": -81.83569,
        "name": "Royalview Singletrack",
        "numReviews": 45,
        "numStars": 0,
        "position": 252,
        "reviewText": "",
        "state": " OH"
    },
    {
        "city": "Buchanan",
        "distance": "8.7 mi",
        "id": "888036",
        "lat": 41.2620383,
        "long": -73.93819429999999,
        "name": "Blue Mountain Reserve",
        "numReviews": 31,
        "numStars": 0,
        "position": 253,
        "reviewText": "",
        "state": " NY"
    },
    {
        "city": "Mirrormont",
        "distance": "19.3 mi",
        "id": "7009143",
        "lat": 47.4623237,
        "long": -121.9956724,
        "name": "Tiger Mountain Loop",
        "numReviews": 21,
        "numStars": 0,
        "position": 254,
        "reviewText": "",
        "state": " WA"
    },
    {
        "city": "Shelby",
        "distance": "5.4 mi",
        "id": "6287519",
        "lat": 43.6086194,
        "long": -86.3639633,
        "name": "River Bends Park",
        "numReviews": 38,
        "numStars": 0,
        "position": 255,
        "reviewText": "",
        "state": " MI"
    },
    {
        "city": "Sedona",
        "distance": "8.4 mi",
        "id": "4939737",
        "lat": 34.8697395,
        "long": -111.7609896,
        "name": "Hangover Loop",
        "numReviews": 27,
        "numStars": 0,
        "position": 256,
        "reviewText": "",
        "state": " AZ"
    },
    {
        "city": "Santa Monica",
        "distance": "14.2 mi",
        "id": "5071276",
        "lat": 34.0194543,
        "long": -118.4911912,
        "name": "Backbone Trail: Will Rog\u2026",
        "numReviews": 40,
        "numStars": 0,
        "position": 257,
        "reviewText": "",
        "state": " CA"
    },
    {
        "city": "Loveland",
        "distance": "13.2 mi",
        "id": "4545070",
        "lat": 40.3977612,
        "long": -105.0749801,
        "name": "Devil's Backbone Loop",
        "numReviews": 53,
        "numStars": 0,
        "position": 258,
        "reviewText": "",
        "state": " CO"
    },
    {
        "city": "Auburn",
        "distance": "12.3 mi",
        "id": "4334999",
        "lat": 32.6098566,
        "long": -85.48078249999999,
        "name": "Lower Chewacla State Park",
        "numReviews": 35,
        "numStars": 0,
        "position": 259,
        "reviewText": "",
        "state": " AL"
    },
    {
        "city": "Lyons",
        "distance": "12.3 mi",
        "id": "7014016",
        "lat": 44.7745664,
        "long": -122.6150855,
        "name": "Catamount Trail Loop",
        "numReviews": 34,
        "numStars": 0,
        "position": 260,
        "reviewText": "",
        "state": " OR"
    },
    {
        "city": "Corydon",
        "distance": "17.4 mi",
        "id": "3679028",
        "lat": 38.2120121,
        "long": -86.1219155,
        "name": "O'Bannon Woods State Park",
        "numReviews": 29,
        "numStars": 0,
        "position": 261,
        "reviewText": "",
        "state": " IN"
    },
    {
        "city": "Roanoke",
        "distance": "13.0 mi",
        "id": "7022676",
        "lat": 33.0040126,
        "long": -97.2258483,
        "name": "Knob Hills MTB Trail",
        "numReviews": 32,
        "numStars": 0,
        "position": 262,
        "reviewText": "",
        "state": " TX"
    },
    {
        "city": "Monroe",
        "distance": "12.9 mi",
        "id": "6136343",
        "lat": 44.3140116,
        "long": -123.2967637,
        "name": "Alsea Falls Complete Loop",
        "numReviews": 22,
        "numStars": 0,
        "position": 263,
        "reviewText": "",
        "state": " OR"
    },
    {
        "city": "LaVerkin",
        "distance": "16.3 mi",
        "id": "3804823",
        "lat": 37.2051385,
        "long": -113.2721584,
        "name": "JEM/Goulds Loop",
        "numReviews": 46,
        "numStars": 0,
        "position": 264,
        "reviewText": "",
        "state": " UT"
    },
    {
        "city": "Glen Alpine",
        "distance": "13.1 mi",
        "id": "5494512",
        "lat": 35.7290167,
        "long": -81.7792661,
        "name": "Lake James State Park",
        "numReviews": 38,
        "numStars": 0,
        "position": 265,
        "reviewText": "",
        "state": " NC"
    },
    {
        "city": "Warren",
        "distance": "11.1 mi",
        "id": "7018320",
        "lat": 41.8143331,
        "long": -79.29021329999999,
        "name": "Big Loop",
        "numReviews": 25,
        "numStars": 0,
        "position": 266,
        "reviewText": "",
        "state": " PA"
    },
    {
        "city": "Granite Bay",
        "distance": "15.9 mi",
        "id": "1802460",
        "lat": 38.7632345,
        "long": -121.1638361,
        "name": "Salmon Falls (Darrington\u2026",
        "numReviews": 42,
        "numStars": 0,
        "position": 267,
        "reviewText": "",
        "state": " CA"
    },
    {
        "city": "Namakagon",
        "distance": "27.0 mi",
        "id": "134766",
        "lat": 46.18527539999999,
        "long": -91.0436584,
        "name": "Rock Lake - IMBA EPIC",
        "numReviews": 32,
        "numStars": 0,
        "position": 268,
        "reviewText": "",
        "state": " WI"
    },
    {
        "city": "Auburn",
        "distance": "5.9 mi",
        "id": "7001482",
        "lat": 32.6098566,
        "long": -85.48078249999999,
        "name": "Upper Chewacla State Park",
        "numReviews": 33,
        "numStars": 0,
        "position": 269,
        "reviewText": "",
        "state": " AL"
    },
    {
        "city": "Pine",
        "distance": "21.0 mi",
        "id": "7005087",
        "lat": 39.4084249,
        "long": -105.3232433,
        "name": "North Fork Lollipop",
        "numReviews": 42,
        "numStars": 0,
        "position": 270,
        "reviewText": "",
        "state": " CO"
    },
    {
        "city": "Arlington",
        "distance": "7.5 mi",
        "id": "182244",
        "lat": 32.735687,
        "long": -97.10806559999999,
        "name": "River Legacy Full Tour",
        "numReviews": 47,
        "numStars": 0,
        "position": 271,
        "reviewText": "",
        "state": " TX"
    },
    {
        "city": "Altadena",
        "distance": "15.6 mi",
        "id": "5498039",
        "lat": 34.190162,
        "long": -118.1313188,
        "name": "Strawberry Peak Loop",
        "numReviews": 38,
        "numStars": 0,
        "position": 272,
        "reviewText": "",
        "state": " CA"
    },
    {
        "city": "Tamalpais-Homestead Valley",
        "distance": "20.7 mi",
        "id": "3485073",
        "lat": 37.8755384,
        "long": -122.531617,
        "name": "Tennessee Valley/Muir Be\u2026",
        "numReviews": 36,
        "numStars": 0,
        "position": 273,
        "reviewText": "",
        "state": " CA"
    },
    {
        "city": "Monument",
        "distance": "12.0 mi",
        "id": "3504412",
        "lat": 39.0916586,
        "long": -104.872758,
        "name": "Mount Herman - Limbaugh\u2026",
        "numReviews": 47,
        "numStars": 0,
        "position": 274,
        "reviewText": "",
        "state": " CO"
    },
    {
        "city": "Steamboat Springs",
        "distance": "15.8 mi",
        "id": "3347164",
        "lat": 40.4849769,
        "long": -106.8317158,
        "name": "Beall - Ridge - Rotary Loop",
        "numReviews": 34,
        "numStars": 0,
        "position": 275,
        "reviewText": "",
        "state": " CO"
    },
    {
        "city": "Nederland",
        "distance": "16.3 mi",
        "id": "6354904",
        "lat": 39.9613759,
        "long": -105.5108312,
        "name": "South Saint Vrain Figure 8",
        "numReviews": 43,
        "numStars": 0,
        "position": 276,
        "reviewText": "",
        "state": " CO"
    },
    {
        "city": "Odell",
        "distance": "20.4 mi",
        "id": "3682158",
        "lat": 45.6270622,
        "long": -121.5431294,
        "name": "Surveyor's Ridge - IMBA\u2026",
        "numReviews": 34,
        "numStars": 0,
        "position": 277,
        "reviewText": "",
        "state": " OR"
    },
    {
        "city": "Bent Creek",
        "distance": "9.7 mi",
        "id": "789692",
        "lat": 35.5090006,
        "long": -82.60790279999999,
        "name": "Ingles Field Gap Loop",
        "numReviews": 41,
        "numStars": 0,
        "position": 278,
        "reviewText": "",
        "state": " NC"
    },
    {
        "city": "Enterprise",
        "distance": "7.2 mi",
        "id": "7000301",
        "lat": 36.0252503,
        "long": -115.2419419,
        "name": "Ike's Peek Loop",
        "numReviews": 37,
        "numStars": 0,
        "position": 279,
        "reviewText": "",
        "state": " NV"
    },
    {
        "city": "Ranchos de Taos",
        "distance": "12.6 mi",
        "id": "7004437",
        "lat": 36.3586367,
        "long": -105.6094566,
        "name": "Rift Valley Trail",
        "numReviews": 45,
        "numStars": 0,
        "position": 280,
        "reviewText": "",
        "state": " NM"
    },
    {
        "city": "McKenzie Bridge",
        "distance": "19.7 mi",
        "id": "3387063",
        "lat": 44.1751238,
        "long": -122.1639473,
        "name": "O'Leary Trail Loop - IMB\u2026",
        "numReviews": 22,
        "numStars": 0,
        "position": 281,
        "reviewText": "",
        "state": " OR"
    },
    {
        "city": "Summerland",
        "distance": "10.2 mi",
        "id": "496099",
        "lat": 34.42138449999999,
        "long": -119.5965173,
        "name": "Romero Loop",
        "numReviews": 38,
        "numStars": 0,
        "position": 282,
        "reviewText": "",
        "state": " CA"
    },
    {
        "city": "Fruita",
        "distance": "6.9 mi",
        "id": "271206",
        "lat": 39.1588696,
        "long": -108.7289882,
        "name": "Chutes & Ladders Loop",
        "numReviews": 54,
        "numStars": 0,
        "position": 283,
        "reviewText": "",
        "state": " CO"
    },
    {
        "city": "Gallup",
        "distance": "13.9 mi",
        "id": "545396",
        "lat": 35.5280783,
        "long": -108.7425843,
        "name": "High Desert Trail System\u2026",
        "numReviews": 36,
        "numStars": 0,
        "position": 284,
        "reviewText": "",
        "state": " NM"
    },
    {
        "city": "Salinas",
        "distance": "9.3 mi",
        "id": "1004114",
        "lat": 36.6777372,
        "long": -121.6555013,
        "name": "Pipeline Loop",
        "numReviews": 28,
        "numStars": 0,
        "position": 285,
        "reviewText": "",
        "state": " CA"
    },
    {
        "city": "Calistoga",
        "distance": "16.6 mi",
        "id": "3620582",
        "lat": 38.5787965,
        "long": -122.5797054,
        "name": "Oat Hill Mine Trail",
        "numReviews": 34,
        "numStars": 0,
        "position": 286,
        "reviewText": "",
        "state": " CA"
    },
    {
        "city": "Bozeman",
        "distance": "4.9 mi",
        "id": "961929",
        "lat": 45.6769979,
        "long": -111.0429339,
        "name": "Leverich Canyon",
        "numReviews": 35,
        "numStars": 0,
        "position": 287,
        "reviewText": "",
        "state": " MT"
    },
    {
        "city": "Summerlin South",
        "distance": "9.9 mi",
        "id": "767466",
        "lat": 36.1349048,
        "long": -115.3280016,
        "name": "Cowboy Trails",
        "numReviews": 33,
        "numStars": 0,
        "position": 288,
        "reviewText": "",
        "state": " NV"
    },
    {
        "city": "Bennington",
        "distance": "9.0 mi",
        "id": "612436",
        "lat": 41.3647193,
        "long": -96.1577968,
        "name": "Tranquility Park",
        "numReviews": 41,
        "numStars": 0,
        "position": 289,
        "reviewText": "",
        "state": " NE"
    },
    {
        "city": "Willow Springs",
        "distance": "15.0 mi",
        "id": "7020636",
        "lat": 41.74086519999999,
        "long": -87.86033429999999,
        "name": "Palos Tour",
        "numReviews": 32,
        "numStars": 0,
        "position": 290,
        "reviewText": "",
        "state": " IL"
    },
    {
        "city": "Manitou Springs",
        "distance": "5.4 mi",
        "id": "4307089",
        "lat": 38.8597127,
        "long": -104.9171989,
        "name": "Palmer Trail - Section 1\u2026",
        "numReviews": 38,
        "numStars": 0,
        "position": 291,
        "reviewText": "",
        "state": " CO"
    },
    {
        "city": "Sherman",
        "distance": "7.3 mi",
        "id": "7038038",
        "lat": 33.6356618,
        "long": -96.6088805,
        "name": "Binkley Plus Baker Ride",
        "numReviews": 21,
        "numStars": 0,
        "position": 292,
        "reviewText": "",
        "state": " TX"
    },
    {
        "city": "Aliso Viejo",
        "distance": "14.7 mi",
        "id": "7020373",
        "lat": 33.5684605,
        "long": -117.7262981,
        "name": "Aliso and Wood Canyons Tour",
        "numReviews": 31,
        "numStars": 0,
        "position": 293,
        "reviewText": "",
        "state": " CA"
    },
    {
        "city": "Cuyahoga Falls",
        "distance": "6.4 mi",
        "id": "7030545",
        "lat": 41.1339449,
        "long": -81.48455849999999,
        "name": "Hampton Hills Tour",
        "numReviews": 29,
        "numStars": 0,
        "position": 294,
        "reviewText": "",
        "state": " OH"
    },
    {
        "city": "Government Camp",
        "distance": "15.7 mi",
        "id": "7006432",
        "lat": 45.3040072,
        "long": -121.7547998,
        "name": "Timberline to Rhododendron",
        "numReviews": 28,
        "numStars": 0,
        "position": 295,
        "reviewText": "",
        "state": " OR"
    },
    {
        "city": "Augusta",
        "distance": "15.1 mi",
        "id": "1463588",
        "lat": 42.3364294,
        "long": -85.35222189999999,
        "name": "Fort Custer MTB Trails -\u2026",
        "numReviews": 33,
        "numStars": 0,
        "position": 296,
        "reviewText": "",
        "state": " MI"
    },
    {
        "city": "Rogue River",
        "distance": "7.0 mi",
        "id": "7006377",
        "lat": 42.435954,
        "long": -123.1719976,
        "name": "Mountain of the Rogue",
        "numReviews": 27,
        "numStars": 0,
        "position": 297,
        "reviewText": "",
        "state": " OR"
    },
    {
        "city": "Tequesta",
        "distance": "9.0 mi",
        "id": "7008239",
        "lat": 26.9636401,
        "long": -80.1121493,
        "name": "Jonathan Dickinson State\u2026",
        "numReviews": 29,
        "numStars": 0,
        "position": 298,
        "reviewText": "",
        "state": " FL"
    },
    {
        "city": "Knoxville",
        "distance": "12.5 mi",
        "id": "59266",
        "lat": 35.9606384,
        "long": -83.9207392,
        "name": "Knoxville Urban Wilderne\u2026",
        "numReviews": 32,
        "numStars": 0,
        "position": 299,
        "reviewText": "",
        "state": " TN"
    },
    {
        "city": "Council Bluffs",
        "distance": "4.4 mi",
        "id": "596663",
        "lat": 41.2619444,
        "long": -95.8608333,
        "name": "Lewis and Clark Monument\u2026",
        "numReviews": 32,
        "numStars": 0,
        "position": 300,
        "reviewText": "",
        "state": " IA"
    }
]